{
  "nodes": [
    {"id": 0,  "lat": 28.5706, "lng": 77.3210, "label": "Sector 18 Market",       "type": "commercial"},
    {"id": 1,  "lat": 28.5745, "lng": 77.3560, "label": "Noida City Centre",      "type": "metro"},
    {"id": 2,  "lat": 28.5850, "lng": 77.3130, "label": "DND Flyway",             "type": "highway"},
    {"id": 3,  "lat": 28.5693, "lng": 77.3340, "label": "Botanical Garden",       "type": "metro"},
    {"id": 4,  "lat": 28.6270, "lng": 77.3650, "label": "Sector 62 IT Hub",       "type": "commercial"},
    {"id": 5,  "lat": 28.6335, "lng": 77.3190, "label": "NH-24 Border",           "type": "highway"},
    {"id": 6,  "lat": 28.5355, "lng": 77.3910, "label": "Amity University",       "type": "institutional"},
    {"id": 7,  "lat": 28.5070, "lng": 77.3940, "label": "Pari Chowk",             "type": "junction"},
    {"id": 8,  "lat": 28.4745, "lng": 77.5040, "label": "Knowledge Park",         "type": "institutional"},
    {"id": 9,  "lat": 28.5470, "lng": 77.3390, "label": "Sector 37",              "type": "residential"},
    {"id": 10, "lat": 28.6030, "lng": 77.3500, "label": "Sector 63 NSEZ",         "type": "commercial"},
    {"id": 11, "lat": 28.5535, "lng": 77.3700, "label": "Film City",              "type": "commercial"},
    {"id": 12, "lat": 28.5288, "lng": 77.3240, "label": "Sector 44",              "type": "residential"},
    {"id": 13, "lat": 28.5940, "lng": 77.3310, "label": "Sector 16A",             "type": "junction"},
    {"id": 14, "lat": 28.6180, "lng": 77.3790, "label": "Sector 59",              "type": "residential"},
    {"id": 15, "lat": 28.4600, "lng": 77.5100, "label": "Alpha 1 (Gr Noida)",     "type": "residential"},
    {"id": 16, "lat": 28.5600, "lng": 77.3735, "label": "Sector 25A",             "type": "residential"},
    {"id": 17, "lat": 28.6100, "lng": 77.3350, "label": "Sector 15 Metro",        "type": "metro"},
    {"id": 18, "lat": 28.4850, "lng": 77.4200, "label": "Gaur City",              "type": "residential"},
    {"id": 19, "lat": 28.5165, "lng": 77.3800, "label": "Sector 50",              "type": "residential"},
    {"id": 20, "lat": 28.5980, "lng": 77.3700, "label": "Sector 58",              "type": "commercial"},
    {"id": 21, "lat": 28.6400, "lng": 77.3540, "label": "Sector 71",              "type": "residential"},
    {"id": 22, "lat": 28.5420, "lng": 77.3580, "label": "Atta Market",            "type": "commercial"},
    {"id": 23, "lat": 28.4950, "lng": 77.4600, "label": "Gr Noida Expressway",    "type": "highway"},
    {"id": 24, "lat": 28.5570, "lng": 77.3500, "label": "GIP Mall",               "type": "commercial"}
  ],
  "edges": [
    [0,  1,  3.8, 0.5, "primary"],
    [0,  2,  2.5, 0.3, "motorway"],
    [0,  3,  2.0, 0.4, "primary"],
    [0,  9,  3.2, 0.7, "secondary"],
    [0, 24,  1.5, 0.4, "secondary"],
    [1,  3,  2.4, 0.4, "primary"],
    [1, 16,  2.1, 0.5, "secondary"],
    [1, 11,  3.0, 0.5, "secondary"],
    [1, 24,  2.2, 0.4, "primary"],
    [2,  5,  5.5, 0.2, "motorway"],
    [2, 13,  2.8, 0.3, "primary"],
    [3,  9,  3.0, 0.6, "secondary"],
    [3, 16,  1.8, 0.5, "secondary"],
    [3, 22,  3.5, 0.5, "secondary"],
    [4, 10,  3.0, 0.4, "primary"],
    [4, 14,  2.5, 0.5, "secondary"],
    [4, 21,  2.0, 0.6, "secondary"],
    [5, 13,  4.2, 0.3, "motorway"],
    [5, 17,  3.5, 0.3, "primary"],
    [5, 21,  3.8, 0.4, "primary"],
    [6, 11,  3.5, 0.6, "secondary"],
    [6,  7,  4.0, 0.5, "primary"],
    [6, 19,  3.2, 0.7, "secondary"],
    [7, 18,  4.5, 0.5, "primary"],
    [7, 23,  6.0, 0.4, "motorway"],
    [7, 19,  2.8, 0.6, "secondary"],
    [8, 15,  3.0, 0.5, "secondary"],
    [8, 23,  5.0, 0.3, "motorway"],
    [9, 12,  2.5, 0.7, "residential"],
    [9, 22,  1.8, 0.6, "secondary"],
    [10, 13, 2.2, 0.4, "primary"],
    [10, 14, 3.0, 0.5, "secondary"],
    [10, 17, 2.0, 0.4, "primary"],
    [10, 20, 2.5, 0.4, "primary"],
    [11, 16, 1.5, 0.5, "secondary"],
    [11, 22, 2.0, 0.5, "secondary"],
    [12, 19, 4.0, 0.7, "residential"],
    [13, 17, 2.0, 0.3, "primary"],
    [14, 20, 2.2, 0.5, "secondary"],
    [14, 21, 2.8, 0.5, "secondary"],
    [15, 23, 5.5, 0.4, "motorway"],
    [17, 20, 4.0, 0.4, "primary"],
    [18, 23, 4.5, 0.4, "primary"],
    [19, 22, 3.5, 0.6, "secondary"],
    [20, 21, 5.0, 0.5, "primary"],
    [22, 24, 1.8, 0.4, "secondary"],
    [24, 16, 1.0, 0.4, "secondary"]
  ]
}
